[
    {
        "id": 1,
        "Name":"El Mercado",
        "Description":"An Austin staple for decades, El Mercado is dedicated to serving delicious, authentic Tex-Mex cuisine in a warm and vibrant atmosphere!",
        "Hours":"11am to 9pm",
        "Address":"1302 S 1st St, Austin, TX 78704"

    },
    {
        "id": 2,
        "Name":"El Alma",
        "Description":"El Alma's menu is a vibrant take on the contemporary flavors of Mexico, that also features local ingredients like redfish, lamb, and texas quail.",
        "Hours":"11am - 10pm",
        "Address":"1025 Barton Springs Rd, Austin, TX 78704"

    },
    {
        "id": 3,
        "Name":"Bouldin Creek Cafe",
        "Description":"A local woman-owned vegan/vegetarian restaurant that serves food from scratch and handcrafted coffee drinks.",
        "Hours":"8am - 10pm",
        "Address":"1900 South 1st Street, Austin, TX 78704"

    },
    {
        "id": 4,
        "Name":"Güero’s Taco Bar",
        "Description":"Güero’s Taco Bar is a vibrant part of South Austin, where the locals flock for hand-shaken margaritas made in the original way with fresh-squeezed lime juice.",
        "Hours":"11am-9pm",
        "Address":"1412 S Congress Ave, Austin, TX 78704"

    }
]